{
  "red": [
    {
      "name": "Shaheed Sthal (New Bus Adda)",
      "lat": 28.670177,
      "long": 77.416031,
      "stationId": 0
    },
    {
      "name": "Hindon River",
      "lat": 28.673508,
      "long": 77.40654,
      "stationId": 1
    },
    {
      "name": "Arthala",
      "lat": 28.6772,
      "long": 77.391876,
      "stationId": 2
    },
    {
      "name": "Mohan Nagar",
      "lat": 28.67856,
      "long": 77.384209,
      "stationId": 3
    },
    {
      "name": "Shyam Park",
      "lat": 28.678217,
      "long": 77.370911,
      "stationId": 4
    },
    {
      "name": "Major Mohit Sharma Rajender Nagar",
      "lat": 28.678095,
      "long": 77.359528,
      "stationId": 5
    },
    {
      "name": "Raj Bagh",
      "lat": 28.677122,
      "long": 77.346466,
      "stationId": 6
    },
    {
      "name": "Shaheed Nagar",
      "lat": 28.676615,
      "long": 77.333809,
      "stationId": 7
    },
    {
      "name": "Dilshad Garden",
      "lat": 28.675991,
      "long": 77.321495,
      "stationId": 8
    },
    {
      "name": "Jhilmil",
      "lat": 28.675648,
      "long": 77.312393,
      "stationId": 9
    },
    {
      "name": "Mansrover park",
      "lat": 28.675352,
      "long": 77.301178,
      "stationId": 10
    },
    {
      "name": "Shahdara",
      "lat": 28.673531,
      "long": 77.28727,
      "stationId": 11
    },
    {
      "name": "Welcome",
      "lat": 28.671986,
      "long": 77.277931,
      "stationId": 12
    },
    {
      "name": "Seelam Pur",
      "lat": 28.670324,
      "long": 77.267311,
      "stationId": 13
    },
    {
      "name": "Shastri Park",
      "lat": 28.668451,
      "long": 77.250404,
      "stationId": 14
    },
    {
      "name": "Kashmere Gate",
      "lat": 28.667879,
      "long": 77.228012,
      "stationId": 15
    },
    {
      "name": "Tis Hazari",
      "lat": 28.667137,
      "long": 77.216721,
      "stationId": 16
    },
    {
      "name": "Pul Bangash",
      "lat": 28.66571,
      "long": 77.206329,
      "stationId": 17
    },
    {
      "name": "Pratap Nagar",
      "lat": 28.666632,
      "long": 77.196869,
      "stationId": 18
    },
    {
      "name": "Shastri Nagar",
      "lat": 28.670135,
      "long": 77.181679,
      "stationId": 19
    },
    {
      "name": "Inderlok",
      "lat": 28.673452,
      "long": 77.170235,
      "stationId": 20
    },
    {
      "name": "Kanhaiya Nagar",
      "lat": 28.682386,
      "long": 77.162552,
      "stationId": 21
    },
    {
      "name": "Keshav Puram",
      "lat": 28.688944,
      "long": 77.161774,
      "stationId": 22
    },
    {
      "name": "Netaji Subash Place",
      "lat": 28.695637,
      "long": 77.152428,
      "stationId": 23
    },
    {
      "name": "Kohat Enclave",
      "lat": 28.697943,
      "long": 77.140465,
      "stationId": 24
    },
    {
      "name": "Pitampura",
      "lat": 28.70318,
      "long": 77.132355,
      "stationId": 25
    },
    {
      "name": "Rohini East",
      "lat": 28.707941,
      "long": 77.125732,
      "stationId": 26
    },
    {
      "name": "Rohini West",
      "lat": 28.715008,
      "long": 77.115746,
      "stationId": 27
    },
    {
      "name": "Rithala",
      "lat": 28.720821,
      "long": 77.105042,
      "stationId": 28
    }
  ],
  "green": [
    {
      "name": "Brigadier Hoshiyar Singh",
      "lat": 28.697428,
      "long": 76.919128,
      "stationId": 0
    },
    {
      "name": "Bahadurgarh City",
      "lat": 28.690784,
      "long": 76.935265,
      "stationId": 1
    },
    {
      "name": "Pandit Shree Ram Sharma",
      "lat": 28.689213,
      "long": 76.951088,
      "stationId": 2
    },
    {
      "name": "Tikri Border",
      "lat": 28.687876,
      "long": 76.963783,
      "stationId": 3
    },
    {
      "name": "Tikri Kalan",
      "lat": 28.686899,
      "long": 76.977249,
      "stationId": 4
    },
    {
      "name": "Ghevra Metro station",
      "lat": 28.685289,
      "long": 76.993584,
      "stationId": 5
    },
    {
      "name": "Mundka Industrial Area (M.I.A)",
      "lat": 28.68396,
      "long": 76.989822,
      "stationId": 6
    },
    {
      "name": "Mundka",
      "lat": 28.682411,
      "long": 77.028282,
      "stationId": 7
    },
    {
      "name": "Rajdhani Park",
      "lat": 28.682217,
      "long": 77.043869,
      "stationId": 8
    },
    {
      "name": "Nangloi Railway Station",
      "lat": 28.682091,
      "long": 77.05619,
      "stationId": 9
    },
    {
      "name": "Nangloi",
      "lat": 28.682356,
      "long": 77.064728,
      "stationId": 10
    },
    {
      "name": "Maharaja Surajmal Stadium",
      "lat": 28.681833,
      "long": 77.073891,
      "stationId": 11
    },
    {
      "name": "Udyog Nagar",
      "lat": 28.681047,
      "long": 77.078674,
      "stationId": 12
    },
    {
      "name": "Peera Garhi",
      "lat": 28.67972,
      "long": 77.092491,
      "stationId": 13
    },
    {
      "name": "Paschim Vihar (West)",
      "lat": 28.678539,
      "long": 77.102119,
      "stationId": 14
    },
    {
      "name": "Paschim Vihar (East)",
      "lat": 28.677305,
      "long": 77.112251,
      "stationId": 15
    },
    {
      "name": "Madipur",
      "lat": 28.676418,
      "long": 77.117294,
      "stationId": 16
    },
    {
      "name": "Shivaji Park",
      "lat": 28.674965,
      "long": 77.128258,
      "stationId": 17
    },
    {
      "name": "Punjabi Bagh",
      "lat": 28.672943,
      "long": 77.146011,
      "stationId": 18
    },
    {
      "name": "Ashok Park Main",
      "lat": 28.671572,
      "long": 77.155159,
      "stationId": 19
    },
    {
      "name": "Inderlok",
      "lat": 28.673452,
      "long": 77.170235,
      "stationId": 20
    }
  ],
  "green_second": [
    {
      "name": "Ashok Park Main",
      "lat": 28.671572,
      "long": 77.155159,
      "stationId": 0
    },
    {
      "name": "Satguru Ram Singh Marg",
      "lat": 28.662188,
      "long": 77.157829,
      "stationId": 1
    },
    {
      "name": "Kirti Nagar",
      "lat": 28.655773,
      "long": 77.148499,
      "stationId": 2
    }
  ],
  "yellow": [
    {
      "name": "Samaypur Badli",
      "lat": 28.742872,
      "long": 77.146545,
      "stationId": 0
    },
    {
      "name": "Rohini Sector 18-19",
      "lat": 28.740192,
      "long": 77.135574,
      "stationId": 1
    },
    {
      "name": "Haiderpur Badli Mor",
      "lat": 28.718657,
      "long": 77.149956,
      "stationId": 2
    },
    {
      "name": "Jahangirpuri",
      "lat": 28.72818,
      "long": 77.16124,
      "stationId": 3
    },
    {
      "name": "Adarsh Nagar",
      "lat": 28.696377,
      "long": 77.208809,
      "stationId": 4
    },
    {
      "name": "Azadpur",
      "lat": 28.707287,
      "long": 77.179863,
      "stationId": 5
    },
    {
      "name": "Model Town",
      "lat": 28.702833,
      "long": 77.193764,
      "stationId": 6
    },
    {
      "name": "Guru Tegh Bahadur Nagar",
      "lat": 28.698195,
      "long": 77.206985,
      "stationId": 7
    },
    {
      "name": "Vishwavidyalaya",
      "lat": 28.694765,
      "long": 77.212418,
      "stationId": 8
    },
    {
      "name": "Vidhan Sabha",
      "lat": 28.687845,
      "long": 77.221626,
      "stationId": 9
    },
    {
      "name": "Civil Lines",
      "lat": 28.676945,
      "long": 77.224953,
      "stationId": 10
    },
    {
      "name": "Kashmere Gate",
      "lat": 28.667879,
      "long": 77.228012,
      "stationId": 11
    },
    {
      "name": "Chandni Chowk",
      "lat": 28.656443,
      "long": 77.229218,
      "stationId": 12
    },
    {
      "name": "Chawri Bazar",
      "lat": 28.649635,
      "long": 77.22628,
      "stationId": 13
    },
    {
      "name": "New Delhi",
      "lat": 28.642944,
      "long": 77.222351,
      "stationId": 14
    },
    {
      "name": "Rajiv Chowk",
      "lat": 28.632896,
      "long": 77.219574,
      "stationId": 15
    },
    {
      "name": "Patel Chowk",
      "lat": 28.622967,
      "long": 77.212288,
      "stationId": 16
    },
    {
      "name": "Central Secretariat",
      "lat": 28.614973,
      "long": 77.212029,
      "stationId": 17
    },
    {
      "name": "Udyog Bhawan",
      "lat": 28.611525,
      "long": 77.210052,
      "stationId": 18
    },
    {
      "name": "Lok Kalyan Marg",
      "lat": 28.597519,
      "long": 77.209122,
      "stationId": 19
    },
    {
      "name": "Jorbagh",
      "lat": 28.587234,
      "long": 77.212662,
      "stationId": 20
    },
    {
      "name": "Dilli Haat - INA",
      "lat": 28.575195,
      "long": 77.209473,
      "stationId": 21
    },
    {
      "name": "AIIMS",
      "lat": 28.568199,
      "long": 77.207947,
      "stationId": 22
    },
    {
      "name": "Green Park",
      "lat": 28.559853,
      "long": 77.206902,
      "stationId": 23
    },
    {
      "name": "Hauz Khas",
      "lat": 28.543346,
      "long": 77.206673,
      "stationId": 24
    },
    {
      "name": "Malviya Nagar",
      "lat": 28.52817,
      "long": 77.205612,
      "stationId": 25
    },
    {
      "name": "Saket",
      "lat": 28.520638,
      "long": 77.199379,
      "stationId": 26
    },
    {
      "name": "Qutab Minar",
      "lat": 28.512714,
      "long": 77.185791,
      "stationId": 27
    },
    {
      "name": "Chhattarpur",
      "lat": 28.506584,
      "long": 77.174866,
      "stationId": 28
    },
    {
      "name": "Sultanpur",
      "lat": 28.499214,
      "long": 77.161362,
      "stationId": 29
    },
    {
      "name": "Ghitorni",
      "lat": 28.49383,
      "long": 77.149071,
      "stationId": 30
    },
    {
      "name": "Arjan Garh",
      "lat": 28.48082,
      "long": 77.12587,
      "stationId": 31
    },
    {
      "name": "Gurudronacharya",
      "lat": 28.482075,
      "long": 77.102219,
      "stationId": 32
    },
    {
      "name": "Sikanderpur",
      "lat": 28.481352,
      "long": 77.092995,
      "stationId": 33
    },
    {
      "name": "MG Road",
      "lat": 28.47967,
      "long": 77.080444,
      "stationId": 34
    },
    {
      "name": "IFFCO Chowk",
      "lat": 28.472137,
      "long": 77.072502,
      "stationId": 35
    },
    {
      "name": "Huda City Centre",
      "lat": 28.459118,
      "long": 77.072586,
      "stationId": 36
    }
  ],
  "blue": [
    {
      "name": "Noida Electronic City",
      "lat": 28.628685,
      "long": 77.375229,
      "stationId": 0
    },
    {
      "name": "Noida Sec-62",
      "lat": 28.616991,
      "long": 77.373611,
      "stationId": 1
    },
    {
      "name": "Noida Sec-59",
      "lat": 28.609089,
      "long": 77.372955,
      "stationId": 2
    },
    {
      "name": "Noida Sec-61",
      "lat": 28.597677,
      "long": 77.372368,
      "stationId": 3
    },
    {
      "name": "Noida Sec-52",
      "lat": 28.586849,
      "long": 77.372749,
      "stationId": 4
    },
    {
      "name": "Noida Sec-34",
      "lat": 28.580229,
      "long": 77.363518,
      "stationId": 5
    },
    {
      "name": "Noida City Centre",
      "lat": 28.574593,
      "long": 77.356117,
      "stationId": 6
    },
    {
      "name": "Golf Course",
      "lat": 28.566917,
      "long": 77.345726,
      "stationId": 7
    },
    {
      "name": "Botanical Garden",
      "lat": 28.564198,
      "long": 77.334656,
      "stationId": 8
    },
    {
      "name": "Noida Sec -18",
      "lat": 28.570843,
      "long": 77.326088,
      "stationId": 9
    },
    {
      "name": "Noida Sec -16",
      "lat": 28.577921,
      "long": 77.318115,
      "stationId": 10
    },
    {
      "name": "Noida Sec -15",
      "lat": 28.585018,
      "long": 77.311584,
      "stationId": 11
    },
    {
      "name": "New Ashok Nagar",
      "lat": 28.58847,
      "long": 77.30146,
      "stationId": 12
    },
    {
      "name": "Mayur Vihar Ext",
      "lat": 28.594124,
      "long": 77.294495,
      "stationId": 13
    },
    {
      "name": "Mayur Vihar-I",
      "lat": 28.604425,
      "long": 77.289421,
      "stationId": 14
    },
    {
      "name": "Akshardham",
      "lat": 28.618364,
      "long": 77.279816,
      "stationId": 15
    },
    {
      "name": "Yamuna Bank",
      "lat": 28.623178,
      "long": 77.267937,
      "stationId": 16
    },
    {
      "name": "Indraprastha",
      "lat": 28.620272,
      "long": 77.250076,
      "stationId": 17
    },
    {
      "name": "Supreme Court",
      "lat": 28.623438,
      "long": 77.2425,
      "stationId": 18
    },
    {
      "name": "Mandi House",
      "lat": 28.625816,
      "long": 77.234726,
      "stationId": 19
    },
    {
      "name": "Barakhamba",
      "lat": 28.629662,
      "long": 77.224876,
      "stationId": 20
    },
    {
      "name": "Rajiv Chowk",
      "lat": 28.632896,
      "long": 77.219574,
      "stationId": 21
    },
    {
      "name": "RK Ashram Marg",
      "lat": 28.639217,
      "long": 77.206291,
      "stationId": 22
    },
    {
      "name": "Jhandewalan",
      "lat": 28.644312,
      "long": 77.199791,
      "stationId": 23
    },
    {
      "name": "Karol Bagh",
      "lat": 28.643925,
      "long": 77.188416,
      "stationId": 24
    },
    {
      "name": "Rajendra Place",
      "lat": 28.64241,
      "long": 77.191833,
      "stationId": 25
    },
    {
      "name": "Patel Nagar",
      "lat": 28.645037,
      "long": 77.167046,
      "stationId": 26
    },
    {
      "name": "Shadipur",
      "lat": 28.65143,
      "long": 77.156021,
      "stationId": 27
    },
    {
      "name": "Kirti Nagar",
      "lat": 28.655773,
      "long": 77.148499,
      "stationId": 28
    },
    {
      "name": "Moti Nagar",
      "lat": 28.657803,
      "long": 77.140488,
      "stationId": 29
    },
    {
      "name": "Ramesh Nagar",
      "lat": 28.652809,
      "long": 77.131462,
      "stationId": 30
    },
    {
      "name": "Rajouri Garden",
      "lat": 28.649157,
      "long": 77.122749,
      "stationId": 31
    },
    {
      "name": "Tagore Garden",
      "lat": 28.643795,
      "long": 77.112747,
      "stationId": 32
    },
    {
      "name": "Subash Nagar",
      "lat": 28.640381,
      "long": 77.10273,
      "stationId": 33
    },
    {
      "name": "Tilak Nagar",
      "lat": 28.636568,
      "long": 77.096336,
      "stationId": 34
    },
    {
      "name": "Janak Puri East",
      "lat": 28.633121,
      "long": 77.086578,
      "stationId": 35
    },
    {
      "name": "Janak Puri West",
      "lat": 28.629637,
      "long": 77.077866,
      "stationId": 36
    },
    {
      "name": "Uttam Nagar East",
      "lat": 28.624643,
      "long": 77.063126,
      "stationId": 37
    },
    {
      "name": "Uttam Nagar West",
      "lat": 28.621672,
      "long": 77.055664,
      "stationId": 38
    },
    {
      "name": "Nawada",
      "lat": 28.620222,
      "long": 77.044991,
      "stationId": 39
    },
    {
      "name": "Dwarka Mor",
      "lat": 28.619366,
      "long": 77.033188,
      "stationId": 40
    },
    {
      "name": "Dwarka",
      "lat": 28.614899,
      "long": 77.022629,
      "stationId": 41
    },
    {
      "name": "Dwarka Sector - 14",
      "lat": 28.602232,
      "long": 77.02594,
      "stationId": 42
    },
    {
      "name": "Dwarka Sector - 13",
      "lat": 28.59705,
      "long": 77.033043,
      "stationId": 43
    },
    {
      "name": "Dwarka Sector - 12",
      "lat": 28.592234,
      "long": 77.040558,
      "stationId": 44
    },
    {
      "name": "Dwarka Sector - 11",
      "lat": 28.58642,
      "long": 77.049255,
      "stationId": 45
    },
    {
      "name": "Dwarka Sector - 10",
      "lat": 28.581108,
      "long": 77.05719,
      "stationId": 46
    },
    {
      "name": "Dwarka Sector - 9",
      "lat": 28.574284,
      "long": 77.065086,
      "stationId": 47
    },
    {
      "name": "Dwarka Sector - 8",
      "lat": 28.565706,
      "long": 77.064896,
      "stationId": 48
    },
    {
      "name": "Dwarka Sector - 21",
      "lat": 28.552322,
      "long": 77.056198,
      "stationId": 49
    }
  ],
  "blue_second": [
    {
      "name": "Vaishali",
      "lat": 28.650059,
      "long": 77.337608,
      "stationId": 0
    },
    {
      "name": "Kaushambi",
      "lat": 28.645428,
      "long": 77.322273,
      "stationId": 1
    },
    {
      "name": "Anand Vihar",
      "lat": 28.647005,
      "long": 77.316185,
      "stationId": 2
    },
    {
      "name": "Karkarduma",
      "lat": 28.648653,
      "long": 77.304581,
      "stationId": 3
    },
    {
      "name": "Preet Vihar",
      "lat": 28.641352,
      "long": 77.295158,
      "stationId": 4
    },
    {
      "name": "Nirman Vihar",
      "lat": 28.637049,
      "long": 77.287872,
      "stationId": 5
    },
    {
      "name": "Laxmi Nagar",
      "lat": 28.629843,
      "long": 77.276428,
      "stationId": 6
    },
    {
      "name": "Yamuna Bank",
      "lat": 28.623178,
      "long": 77.267937,
      "stationId": 7
    }
  ],
  "violet": [
    {
      "name": "Kashmere Gate",
      "lat": 28.667879,
      "long": 77.228012,
      "stationId": 0
    },
    {
      "name": "Lal Quila",
      "lat": 28.657576,
      "long": 77.236595,
      "stationId": 1
    },
    {
      "name": "Jama Masjid",
      "lat": 28.650393,
      "long": 77.237556,
      "stationId": 2
    },
    {
      "name": "Delhi Gate",
      "lat": 28.640488,
      "long": 77.240303,
      "stationId": 3
    },
    {
      "name": "ITO",
      "lat": 28.627205,
      "long": 77.240952,
      "stationId": 4
    },
    {
      "name": "Mandi House",
      "lat": 28.625816,
      "long": 77.234726,
      "stationId": 5
    },
    {
      "name": "Janpath",
      "lat": 28.627817,
      "long": 77.218956,
      "stationId": 6
    },
    {
      "name": "Central Secretariat",
      "lat": 28.614973,
      "long": 77.212029,
      "stationId": 7
    },
    {
      "name": "Khan Market",
      "lat": 28.602682,
      "long": 77.228096,
      "stationId": 8
    },
    {
      "name": "Jawahar Lal Nehru Stadium",
      "lat": 28.590475,
      "long": 77.23307,
      "stationId": 9
    },
    {
      "name": "Jangpura",
      "lat": 28.583231,
      "long": 77.239662,
      "stationId": 10
    },
    {
      "name": "Lajpat Nagar",
      "lat": 28.570705,
      "long": 77.233124,
      "stationId": 11
    },
    {
      "name": "Moolchand",
      "lat": 28.564629,
      "long": 77.234222,
      "stationId": 12
    },
    {
      "name": "Kailash Colony",
      "lat": 28.554617,
      "long": 77.239738,
      "stationId": 13
    },
    {
      "name": "Nehru Place",
      "lat": 28.551134,
      "long": 77.251511,
      "stationId": 14
    },
    {
      "name": "Kalkaji Mandir",
      "lat": 28.549532,
      "long": 77.258789,
      "stationId": 15
    },
    {
      "name": "Govind Puri",
      "lat": 28.544413,
      "long": 77.264259,
      "stationId": 16
    },
    {
      "name": "Harkesh Nagar Okhla",
      "lat": 28.543194,
      "long": 77.275955,
      "stationId": 17
    },
    {
      "name": "Jasola-Apollo",
      "lat": 28.538084,
      "long": 77.285538,
      "stationId": 18
    },
    {
      "name": "Sarita Vihar",
      "lat": 28.528622,
      "long": 77.288345,
      "stationId": 19
    },
    {
      "name": "Mohan Estate",
      "lat": 28.51959,
      "long": 77.294518,
      "stationId": 20
    },
    {
      "name": "Tughlakabad Station",
      "lat": 28.502232,
      "long": 77.29866,
      "stationId": 21
    },
    {
      "name": "Badarpur Border",
      "lat": 28.4932,
      "long": 77.30085,
      "stationId": 22
    },
    {
      "name": "Sarai",
      "lat": 28.47794,
      "long": 77.304932,
      "stationId": 23
    },
    {
      "name": "NHPC Chowk",
      "lat": 28.462435,
      "long": 77.305252,
      "stationId": 24
    },
    {
      "name": "Mewala Maharajpur",
      "lat": 28.4485,
      "long": 77.308098,
      "stationId": 25
    },
    {
      "name": "Sector-28",
      "lat": 28.440586,
      "long": 77.305992,
      "stationId": 26
    },
    {
      "name": "Badkal Mor",
      "lat": 28.422707,
      "long": 77.310234,
      "stationId": 27
    },
    {
      "name": "Old Faridabad",
      "lat": 28.412172,
      "long": 77.311272,
      "stationId": 28
    },
    {
      "name": "Neelam Chowk Ajronda",
      "lat": 28.400707,
      "long": 77.309105,
      "stationId": 29
    },
    {
      "name": "Bata Chowk",
      "lat": 28.386362,
      "long": 77.298782,
      "stationId": 30
    },
    {
      "name": "Escorts Mujesar",
      "lat": 28.370199,
      "long": 77.315002,
      "stationId": 31
    },
    {
      "name": "Sant Surdas (Sihi)",
      "lat": 28.354666,
      "long": 77.316261,
      "stationId": 32
    },
    {
      "name": "Raja Nahar Singh",
      "lat": 28.339899,
      "long": 77.331657,
      "stationId": 33
    }
  ],
  "aqua": [
    {
      "name": "Noida Sector 51",
      "lat": 28.585548,
      "long": 77.375374,
      "stationId": 0
    },
    {
      "name": "Noida Sector 50",
      "lat": 28.574547,
      "long": 77.378357,
      "stationId": 1
    },
    {
      "name": "Noida Sector 76",
      "lat": 28.565445,
      "long": 77.37973,
      "stationId": 2
    },
    {
      "name": "Noida Sector 101",
      "lat": 28.556065,
      "long": 77.385056,
      "stationId": 3
    },
    {
      "name": "Noida Sector 81",
      "lat": 28.549259,
      "long": 77.390099,
      "stationId": 4
    },
    {
      "name": "NSEZ",
      "lat": 28.532248,
      "long": 77.394951,
      "stationId": 5
    },
    {
      "name": "Noida Sector 83",
      "lat": 28.522284,
      "long": 77.396477,
      "stationId": 6
    },
    {
      "name": "Noida Sector 137",
      "lat": 28.510817,
      "long": 77.403625,
      "stationId": 7
    },
    {
      "name": "Noida Sector 142",
      "lat": 28.498999,
      "long": 77.412567,
      "stationId": 8
    },
    {
      "name": "Noida Sector 143",
      "lat": 28.494246,
      "long": 77.422318,
      "stationId": 9
    },
    {
      "name": "Noida Sector 144",
      "lat": 28.486376,
      "long": 77.432968,
      "stationId": 10
    },
    {
      "name": "Noida Sector 145",
      "lat": 28.47913,
      "long": 77.442307,
      "stationId": 11
    },
    {
      "name": "Noida Sector 146",
      "lat": 28.468822,
      "long": 77.455101,
      "stationId": 12
    },
    {
      "name": "Noida Sector 147",
      "lat": 28.4594,
      "long": 77.465965,
      "stationId": 13
    },
    {
      "name": "Noida Sector 148",
      "lat": 28.448021,
      "long": 77.476692,
      "stationId": 14
    },
    {
      "name": "Knowledge Park",
      "lat": 28.456865,
      "long": 77.500298,
      "stationId": 15
    },
    {
      "name": "Pari Chowk",
      "lat": 28.463331,
      "long": 77.508308,
      "stationId": 16
    },
    {
      "name": "Alpha 1",
      "lat": 28.470879,
      "long": 77.512718,
      "stationId": 17
    },
    {
      "name": "Delta 1",
      "lat": 28.478374,
      "long": 77.525581,
      "stationId": 18
    },
    {
      "name": "GNIDA Office",
      "lat": 28.484531,
      "long": 77.536621,
      "stationId": 19
    },
    {
      "name": "Depot Station",
      "lat": 28.488651,
      "long": 77.544075,
      "stationId": 20
    }
  ],
  "grey": [
    {
      "name": "Nangli",
      "lat": 28.61722,
      "long": 77.010345,
      "stationId": 0
    },
    {
      "name": "Najafgarh",
      "lat": 28.613316,
      "long": 76.986259,
      "stationId": 1
    },
    {
      "name": "Dhansa Bus Stand",
      "lat": 28.611858,
      "long": 76.975426,
      "stationId": 2
    },
    {
      "name": "Dwarka",
      "lat": 28.614899,
      "long": 77.022629,
      "stationId": 3
    }
  ],
  "magenta": [
    {
      "name": "Botanical Garden",
      "lat": 28.564198,
      "long": 77.334656,
      "stationId": 0
    },
    {
      "name": "Okhla Bird Sanctuary",
      "lat": 28.552816,
      "long": 77.321564,
      "stationId": 1
    },
    {
      "name": "Kalindi Kunj",
      "lat": 28.542835,
      "long": 77.310173,
      "stationId": 2
    },
    {
      "name": "Jasola Vihar Shaheen Bagh",
      "lat": 28.546005,
      "long": 77.296715,
      "stationId": 3
    },
    {
      "name": "Okhla Vihar",
      "lat": 28.561255,
      "long": 77.291916,
      "stationId": 4
    },
    {
      "name": "Jamia Millia Islamia",
      "lat": 28.562944,
      "long": 77.286209,
      "stationId": 5
    },
    {
      "name": "Sukhdev Vihar",
      "lat": 28.559887,
      "long": 77.275116,
      "stationId": 6
    },
    {
      "name": "Okhla NSIC",
      "lat": 28.554575,
      "long": 77.26487,
      "stationId": 7
    },
    {
      "name": "Kalkaji Mandir",
      "lat": 28.549532,
      "long": 77.258789,
      "stationId": 8
    },
    {
      "name": "Nehru Enclave",
      "lat": 28.545856,
      "long": 77.25116,
      "stationId": 9
    },
    {
      "name": "Greater Kailash",
      "lat": 28.541836,
      "long": 77.238243,
      "stationId": 10
    },
    {
      "name": "Chirag Delhi",
      "lat": 28.541229,
      "long": 77.229385,
      "stationId": 11
    },
    {
      "name": "Panchsheel Park",
      "lat": 28.542339,
      "long": 77.220512,
      "stationId": 12
    },
    {
      "name": "IIT",
      "lat": 28.547194,
      "long": 77.193832,
      "stationId": 13
    },
    {
      "name": "Hauz Khas",
      "lat": 28.543346,
      "long": 77.206673,
      "stationId": 14
    },
    {
      "name": "RK Puram",
      "lat": 28.550486,
      "long": 77.184952,
      "stationId": 15
    },
    {
      "name": "Munirka",
      "lat": 28.557821,
      "long": 77.174026,
      "stationId": 16
    },
    {
      "name": "Vasant Vihar",
      "lat": 28.558378,
      "long": 77.160774,
      "stationId": 17
    },
    {
      "name": "Shankar Vihar",
      "lat": 28.560787,
      "long": 77.140442,
      "stationId": 18
    },
    {
      "name": "Terminal 1- IGI Airport",
      "lat": 28.565275,
      "long": 77.122391,
      "stationId": 19
    },
    {
      "name": "Sadar Bazar Contonment",
      "lat": 28.577108,
      "long": 77.111305,
      "stationId": 20
    },
    {
      "name": "Palam",
      "lat": 28.589067,
      "long": 77.082954,
      "stationId": 21
    },
    {
      "name": "Dashrath Puri",
      "lat": 28.602333,
      "long": 77.08255,
      "stationId": 22
    },
    {
      "name": "Dabri Mor - Janakpuri South",
      "lat": 28.615904,
      "long": 77.085258,
      "stationId": 23
    },
    {
      "name": "Janak Puri West",
      "lat": 28.629637,
      "long": 77.077866,
      "stationId": 24
    }
  ],
  "orange": [
    {
      "name": "Dwarka Sector - 21",
      "lat": 28.552322,
      "long": 77.056198,
      "stationId": 0
    },
    {
      "name": "IGI Airport",
      "lat": 28.554869,
      "long": 77.087921,
      "stationId": 1
    },
    {
      "name": "Delhi Aerocity",
      "lat": 28.548792,
      "long": 77.120743,
      "stationId": 2
    },
    {
      "name": "Dhaula Kuan",
      "lat": 28.591776,
      "long": 77.161545,
      "stationId": 3
    },
    {
      "name": "Shivaji Stadium",
      "lat": 28.629007,
      "long": 77.209213,
      "stationId": 4
    },
    {
      "name": "New Delhi",
      "lat": 28.642944,
      "long": 77.222351,
      "stationId": 5
    }
  ],
  "rapid": [
    {
      "name": "Phase 3 (Rapid Metro)",
      "lat": 28.494329,
      "long": 77.093552,
      "stationId": 0
    },
    {
      "name": "Moulsari Avenue (Rapid Metro)",
      "lat": 28.501572,
      "long": 77.094536,
      "stationId": 1
    },
    {
      "name": "Cyber City (Rapid Metro)",
      "lat": 28.498478,
      "long": 77.089088,
      "stationId": 2
    },
    {
      "name": "Belvedere Towers (Rapid Metro)",
      "lat": 28.492065,
      "long": 77.088142,
      "stationId": 3
    },
    {
      "name": "Phase 2 (Rapid Metro)",
      "lat": 28.488371,
      "long": 77.092865,
      "stationId": 4
    },
    {
      "name": "Sikanderpur",
      "lat": 28.481352,
      "long": 77.092995,
      "stationId": 5
    },
    {
      "name": "Phase-I (Rapid Metro)",
      "lat": 28.471981,
      "long": 77.094009,
      "stationId": 6
    },
    {
      "name": "Sector 42-43 (Rapid Metro)",
      "lat": 28.458475,
      "long": 77.09684,
      "stationId": 7
    },
    {
      "name": "Sector 53-54 (Rapid Metro)",
      "lat": 28.447533,
      "long": 77.100487,
      "stationId": 8
    },
    {
      "name": "Sector 54 Chowk (Rapid Metro)",
      "lat": 28.434212,
      "long": 77.104782,
      "stationId": 9
    },
    {
      "name": "Sector 55-56 (Rapid Metro)",
      "lat": 28.424587,
      "long": 77.105042,
      "stationId": 10
    }
  ],
  "pink": [
    {
      "name": "Majlis Park",
      "lat": 28.724157,
      "long": 77.182068,
      "stationId": 0
    },
    {
      "name": "Azadpur",
      "lat": 28.707287,
      "long": 77.179863,
      "stationId": 1
    },
    {
      "name": "Shalimar Bagh",
      "lat": 28.70182,
      "long": 77.165184,
      "stationId": 2
    },
    {
      "name": "Netaji Subash Place",
      "lat": 28.695637,
      "long": 77.152428,
      "stationId": 3
    },
    {
      "name": "Shakurpur",
      "lat": 28.685781,
      "long": 77.149651,
      "stationId": 4
    },
    {
      "name": "Punjabi Bagh West",
      "lat": 28.672747,
      "long": 77.139183,
      "stationId": 5
    },
    {
      "name": "ESI Basai Darapur",
      "lat": 28.658159,
      "long": 77.127319,
      "stationId": 6
    },
    {
      "name": "Rajouri Garden",
      "lat": 28.649157,
      "long": 77.122749,
      "stationId": 7
    },
    {
      "name": "Mayapuri",
      "lat": 28.637098,
      "long": 77.129738,
      "stationId": 8
    },
    {
      "name": "Naraina Vihar",
      "lat": 28.624121,
      "long": 77.136482,
      "stationId": 9
    },
    {
      "name": "Delhi Cantt.",
      "lat": 28.608641,
      "long": 77.140373,
      "stationId": 10
    },
    {
      "name": "Durgabai Deshmukh South Campus",
      "lat": 28.589376,
      "long": 77.169518,
      "stationId": 11
    },
    {
      "name": "Sir Vishweshwaraiah Moti Bagh",
      "lat": 28.578529,
      "long": 77.175713,
      "stationId": 12
    },
    {
      "name": "Bhikaji Cama Place",
      "lat": 28.570208,
      "long": 77.187866,
      "stationId": 13
    },
    {
      "name": "Sarojini Nagar",
      "lat": 28.570208,
      "long": 77.187866,
      "stationId": 14
    },
    {
      "name": "Dilli Haat - INA",
      "lat": 28.575195,
      "long": 77.209473,
      "stationId": 15
    },
    {
      "name": "South Extension",
      "lat": 28.5686,
      "long": 77.219818,
      "stationId": 16
    },
    {
      "name": "Lajpat Nagar",
      "lat": 28.570705,
      "long": 77.233124,
      "stationId": 17
    },
    {
      "name": "Vinobapuri",
      "lat": 28.566179,
      "long": 77.249367,
      "stationId": 18
    },
    {
      "name": "Ashram",
      "lat": 28.576065,
      "long": 77.25753,
      "stationId": 19
    },
    {
      "name": "Sarai Kale Khan - Nizamuddin",
      "lat": 28.5889,
      "long": 77.253189,
      "stationId": 20
    },
    {
      "name": "Mayur Vihar-I",
      "lat": 28.604425,
      "long": 77.289421,
      "stationId": 21
    },
    {
      "name": "Mayur Vihar Pocket 1",
      "lat": 28.606598,
      "long": 77.296326,
      "stationId": 22
    },
    {
      "name": "Trilokpuri Sanjay Lake",
      "lat": 28.613506,
      "long": 77.308678,
      "stationId": 23
    },
    {
      "name": "East Vinod Nagar - Mayur Vihar-II",
      "lat": 28.620052,
      "long": 77.305588,
      "stationId": 24
    },
    {
      "name": "Mandawali - West Vinod Nagar",
      "lat": 28.624861,
      "long": 77.304146,
      "stationId": 25
    },
    {
      "name": "IP Extension",
      "lat": 28.631599,
      "long": 77.310898,
      "stationId": 26
    },
    {
      "name": "Anand Vihar",
      "lat": 28.647005,
      "long": 77.316185,
      "stationId": 27
    },
    {
      "name": "Karkarduma",
      "lat": 28.648653,
      "long": 77.304581,
      "stationId": 28
    },
    {
      "name": "Karkarduma Court",
      "lat": 28.649473,
      "long": 77.295341,
      "stationId": 29
    },
    {
      "name": "Krishna Nagar",
      "lat": 28.65782,
      "long": 77.290306,
      "stationId": 30
    },
    {
      "name": "East Azad Nagar",
      "lat": 28.665043,
      "long": 77.284599,
      "stationId": 31
    },
    {
      "name": "Welcome",
      "lat": 28.671986,
      "long": 77.277931,
      "stationId": 32
    },
    {
      "name": "Jafrabad",
      "lat": 28.682943,
      "long": 77.27507,
      "stationId": 33
    },
    {
      "name": "Maujpur - Babarpur",
      "lat": 28.692057,
      "long": 77.280922,
      "stationId": 34
    },
    {
      "name": "Gokulpuri",
      "lat": 28.703009,
      "long": 77.286301,
      "stationId": 35
    },
    {
      "name": "Johri Enclave",
      "lat": 28.713297,
      "long": 77.290154,
      "stationId": 36
    },
    {
      "name": "Shiv Vihar",
      "lat": 28.721863,
      "long": 77.289635,
      "stationId": 37
    }
  ]
}